{
  "available_places": [
    {
      "City": "Beer sheva",
      "State": "Israel",
      "Address": "Mordehai A'liash St 6",
      "lat": 31.25415959,
      "lng": 34.80707418,
      "sell/rent": "rent",
      "price": 5000,
      "area": 50,
      "area category": 1,
      "Public Transport": "no",
      "Public parking": "yes",
      "floor": 0,
      "storage": "no"
    },
    {
      "City": "Beer sheva",
      "State": "Israel",
      "Address": "Mish'ol Shamai",
      "lat": 31.2714315,
      "lng": 34.79395355,
      "sell/rent": "rent",
      "price": 0,
      "area": 40,
      "area category": 0,
      "Public Transport": "no",
      "Public parking": "yes",
      "floor": 0,
      "storage": "yes"
    },
    {
      "City": "Beer sheva",
      "State": "Israel",
      "Address": "Yosef Ben Matityahu St 76",
      "lat": 31.26773913,
      "lng": 34.80201739,
      "sell/rent": "rent",
      "price": 7500,
      "area": 60,
      "area category": 1,
      "Public Transport": "no",
      "Public parking": "yes",
      "floor": 0,
      "storage": "no"
    },
    {
      "City": "Beer sheva",
      "State": "Israel",
      "Address": "Ha-Histadrut St 54",
      "lat": 31.23957797,
      "lng": 34.78874781,
      "sell/rent": "rent",
      "price": 30000,
      "area": 300,
      "area category": 2,
      "Public Transport": "yes",
      "Public parking": "yes",
      "floor": 0,
      "storage": "no"
    },
    {
      "City": "Beer sheva",
      "State": "Israel",
      "Address": "Ha-Palmakh St 52",
      "lat": 31.23917025,
      "lng": 34.78906642,
      "sell/rent": "rent",
      "price": 2000,
      "area": 22,
      "area category": 0,
      "Public Transport": "yes",
      "Public parking": "yes",
      "floor": 0,
      "storage": "no"
    },
    {
      "City": "Beer sheva",
      "State": "Israel",
      "Address": "HaAtsmaut St 48",
      "lat": 31.24032373,
      "lng": 34.79006004,
      "sell/rent": "rent",
      "price": 8200,
      "area": 35,
      "area category": 0,
      "Public Transport": "yes",
      "Public parking": "no",
      "floor": 0,
      "storage": "no"
    },
    {
      "City": "Beer sheva",
      "State": "Israel",
      "Address": "Herzl St 16",
      "lat": 31.239535,
      "lng": 34.78770235,
      "sell/rent": "rent",
      "price": 4000,
      "area": 115,
      "area category": 2,
      "Public Transport": "no",
      "Public parking": "yes",
      "floor": 0,
      "storage": "yes"
    },
    {
      "City": "Beer sheva",
      "State": "Israel",
      "Address": "David Ben Gurion Blvd 1",
      "lat": 31.2616094,
      "lng": 34.79953314,
      "sell/rent": "rent",
      "price": 7400,
      "area": 130,
      "area category": 2,
      "Public Transport": "yes",
      "Public parking": "yes",
      "floor": 0,
      "storage": "yes"
    },
    {
      "City": "Beer sheva",
      "State": "Israel",
      "Address": "Sderot Johana Jabotinsky 7",
      "lat": 31.24021667,
      "lng": 34.77590285,
      "sell/rent": "rent",
      "price": 0,
      "area": 150,
      "area category": 2,
      "Public Transport": "yes",
      "Public parking": "yes",
      "floor": 0,
      "storage": "yes"
    },
    {
      "City": "Beer sheva",
      "State": "Israel",
      "Address": "Nahum Sarig St 1",
      "lat": 31.28140483,
      "lng": 34.80478145,
      "sell/rent": "rent",
      "price": 4500,
      "area": 60,
      "area category": 1,
      "Public Transport": "yes",
      "Public parking": "yes",
      "floor": 0,
      "storage": "no"
    },
    {
      "City": "Beer sheva",
      "State": "Israel",
      "Address": "Sderot Johana Jabotinsky 7",
      "lat": 31.24021667,
      "lng": 34.77590285,
      "sell/rent": "rent",
      "price": 0,
      "area": 45,
      "area category": 0,
      "Public Transport": "yes",
      "Public parking": "yes",
      "floor": 0,
      "storage": "no"
    }
  ]
}
